[
  {
    "name": "Amersham Underground Station",
    "zones": "9",
    "latitude": 51.674126,
    "longitude": -0.607714
  },
  {
    "name": "Chalfont & Latimer Underground Station",
    "zones": "8",
    "latitude": 51.667985,
    "longitude": -0.560689
  },
  {
    "name": "Chesham Underground Station",
    "zones": "9",
    "latitude": 51.705208,
    "longitude": -0.611247
  },
  {
    "name": "Buckhurst Hill Underground Station",
    "zones": "5",
    "latitude": 51.626605,
    "longitude": 0.046757
  },
  {
    "name": "Chigwell Underground Station",
    "zones": "4",
    "latitude": 51.617916,
    "longitude": 0.075041
  },
  {
    "name": "Debden Underground Station",
    "zones": "6",
    "latitude": 51.645386,
    "longitude": 0.083782
  },
  {
    "name": "Epping Underground Station",
    "zones": "6",
    "latitude": 51.69368,
    "longitude": 0.113767
  },
  {
    "name": "Grange Hill Underground Station",
    "zones": "4",
    "latitude": 51.613378,
    "longitude": 0.092066
  },
  {
    "name": "Loughton Underground Station",
    "zones": "6",
    "latitude": 51.641443,
    "longitude": 0.055476
  },
  {
    "name": "Theydon Bois Underground Station",
    "zones": "6",
    "latitude": 51.671759,
    "longitude": 0.103085
  },
  {
    "name": "Croxley Underground Station",
    "zones": "7",
    "latitude": 51.647044,
    "longitude": -0.441718
  },
  {
    "name": "Chorleywood Underground Station",
    "zones": "7",
    "latitude": 51.654358,
    "longitude": -0.518461
  },
  {
    "name": "Moor Park Underground Station",
    "zones": "6+7",
    "latitude": 51.629845,
    "longitude": -0.432454
  },
  {
    "name": "Rickmansworth Underground Station",
    "zones": "7",
    "latitude": 51.640207,
    "longitude": -0.473703
  },
  {
    "name": "Watford Underground Station",
    "zones": "7",
    "latitude": 51.657446,
    "longitude": -0.417377
  },
  {
    "name": "Acton Town Station",
    "zones": "3",
    "latitude": 51.50324,
    "longitude": -0.27991
  },
  {
    "name": "Archway Station",
    "zones": "2+3",
    "latitude": 51.564626,
    "longitude": -0.134969
  },
  {
    "name": "Aldgate East Station",
    "zones": "1",
    "latitude": 51.51602,
    "longitude": -0.07002
  },
  {
    "name": "Angel Station",
    "zones": "1",
    "latitude": 51.531788,
    "longitude": -0.105919
  },
  {
    "name": "Aldgate Station",
    "zones": "1",
    "latitude": 51.51405,
    "longitude": -0.07528
  },
  {
    "name": "Alperton Station",
    "zones": "4",
    "latitude": 51.54063,
    "longitude": -0.29913
  },
  {
    "name": "Arnos Grove Station",
    "zones": "4",
    "latitude": 51.61606,
    "longitude": -0.1334
  },
  {
    "name": "Arsenal",
    "zones": "2",
    "latitude": 51.5584,
    "longitude": -0.10568
  },
  {
    "name": "Bromley By Bow Station",
    "zones": "2/3",
    "latitude": 51.52478,
    "longitude": -0.01107
  },
  {
    "name": "Barbican Station",
    "zones": "1",
    "latitude": 51.52031,
    "longitude": -0.09753
  },
  {
    "name": "Bounds Green Station",
    "zones": "3+4",
    "latitude": 51.60693,
    "longitude": -0.1243
  },
  {
    "name": "Becontree Station",
    "zones": "5",
    "latitude": 51.5404,
    "longitude": 0.12751
  },
  {
    "name": "Barkingside Station",
    "zones": "4",
    "latitude": 51.58582,
    "longitude": 0.08836
  },
  {
    "name": "Bethnal Green Station",
    "zones": "2",
    "latitude": 51.52739,
    "longitude": -0.0556
  },
  {
    "name": "Balham Station",
    "zones": "3",
    "latitude": 51.443943,
    "longitude": -0.152367
  },
  {
    "name": "Balham Station  / Balham Station Road",
    "zones": "3",
    "latitude": 51.44324,
    "longitude": -0.15222
  },
  {
    "name": "Bermondsey Station",
    "zones": "2",
    "latitude": 51.49814,
    "longitude": -0.06363
  },
  {
    "name": "Bond Street Station",
    "zones": "1",
    "latitude": 51.514299,
    "longitude": -0.149377
  },
  {
    "name": "Borough Station",
    "zones": "1",
    "latitude": 51.50028,
    "longitude": -0.09218
  },
  {
    "name": "Boston Manor Station",
    "zones": "4",
    "latitude": 51.49585,
    "longitude": -0.32446
  },
  {
    "name": "Barons Court",
    "zones": "2",
    "latitude": 51.49037,
    "longitude": -0.21355
  },
  {
    "name": "Baker Street Station",
    "zones": "1",
    "latitude": 51.52232,
    "longitude": -0.15738
  },
  {
    "name": "Burnt Oak Station",
    "zones": "4",
    "latitude": 51.602873,
    "longitude": -0.264059
  },
  {
    "name": "Brent Cross Station",
    "zones": "3",
    "latitude": 51.576703,
    "longitude": -0.213592
  },
  {
    "name": "Bow Road Station",
    "zones": "2",
    "latitude": 51.52712,
    "longitude": -0.02501
  },
  {
    "name": "Bayswater Station",
    "zones": "1",
    "latitude": 51.51239,
    "longitude": -0.18769
  },
  {
    "name": "Brixton Station",
    "zones": "2",
    "latitude": 51.46265,
    "longitude": -0.11496
  },
  {
    "name": "Belsize Park Station",
    "zones": "2",
    "latitude": 51.55041,
    "longitude": -0.16447
  },
  {
    "name": "Caledonian Road Station",
    "zones": "2",
    "latitude": 51.548711,
    "longitude": -0.118168
  },
  {
    "name": "Chalk Farm Station",
    "zones": "2",
    "latitude": 51.544219,
    "longitude": -0.153528
  },
  {
    "name": "Covent Garden Station",
    "zones": "1",
    "latitude": 51.51302,
    "longitude": -0.12401
  },
  {
    "name": "Chancery Lane Station",
    "zones": "1",
    "latitude": 51.51818,
    "longitude": -0.11111
  },
  {
    "name": "Charing Cross Stn / Trafalgar Square",
    "zones": "1",
    "latitude": 51.50731,
    "longitude": -0.12841
  },
  {
    "name": "Charing Cross Station",
    "zones": "1",
    "latitude": 51.50779,
    "longitude": -0.12709
  },
  {
    "name": "Cockfosters Station",
    "zones": "5",
    "latitude": 51.6513,
    "longitude": -0.14931
  },
  {
    "name": "Colindale Station",
    "zones": "4",
    "latitude": 51.595506,
    "longitude": -0.250003
  },
  {
    "name": "Clapham Common Station",
    "zones": "2",
    "latitude": 51.4617,
    "longitude": -0.13833
  },
  {
    "name": "Canons Park Station",
    "zones": "5",
    "latitude": 51.60754,
    "longitude": -0.29476
  },
  {
    "name": "Clapham North Station",
    "zones": "2",
    "latitude": 51.46518,
    "longitude": -0.12955
  },
  {
    "name": "Clapham South Station",
    "zones": "2+3",
    "latitude": 51.4529,
    "longitude": -0.14767
  },
  {
    "name": "Colliers Wood Station",
    "zones": "3",
    "latitude": 51.418334,
    "longitude": -0.177763
  },
  {
    "name": "Cannon Street Station",
    "zones": "1",
    "latitude": 51.51158,
    "longitude": -0.09079
  },
  {
    "name": "Camden Town Station",
    "zones": "2",
    "latitude": 51.53925,
    "longitude": -0.14277
  },
  {
    "name": "Chiswick Park",
    "zones": "3",
    "latitude": 51.49434,
    "longitude": -0.26804
  },
  {
    "name": "Canary Wharf Station",
    "zones": "2",
    "latitude": 51.50345,
    "longitude": -0.01748
  },
  {
    "name": "Dagenham East Station",
    "zones": "5",
    "latitude": 51.54423,
    "longitude": 0.16601
  },
  {
    "name": "Dagenham Heathway Station",
    "zones": "5",
    "latitude": 51.54176,
    "longitude": 0.14778
  },
  {
    "name": "Dollis Hill Station",
    "zones": "3",
    "latitude": 51.551985,
    "longitude": -0.238663
  },
  {
    "name": "Elephant & Castle Station",
    "zones": "1+2",
    "latitude": 51.49448,
    "longitude": -0.10046
  },
  {
    "name": "Eastcote Station",
    "zones": "5",
    "latitude": 51.57653,
    "longitude": -0.39731
  },
  {
    "name": "East Acton Station",
    "zones": "2",
    "latitude": 51.51659,
    "longitude": -0.24749
  },
  {
    "name": "Ealing Common Station",
    "zones": "3",
    "latitude": 51.51032,
    "longitude": -0.28817
  },
  {
    "name": "Earls Court Station",
    "zones": "1+2",
    "latitude": 51.4922,
    "longitude": -0.19319
  },
  {
    "name": "Earl's Court Station",
    "zones": "1+2",
    "latitude": 51.49029,
    "longitude": -0.19578
  },
  {
    "name": "East Finchley Station",
    "zones": "3",
    "latitude": 51.58669,
    "longitude": -0.16471
  },
  {
    "name": "Edgware Station",
    "zones": "5",
    "latitude": 51.61343,
    "longitude": -0.27582
  },
  {
    "name": "East Ham Station",
    "zones": "3+4",
    "latitude": 51.53896,
    "longitude": 0.05139
  },
  {
    "name": "Embankment Station",
    "zones": "1",
    "latitude": 51.50697,
    "longitude": -0.12191
  },
  {
    "name": "Elm Park Station",
    "zones": "6",
    "latitude": 51.54957,
    "longitude": 0.197577
  },
  {
    "name": "East Putney Station",
    "zones": "2+3",
    "latitude": 51.45916,
    "longitude": -0.21074
  },
  {
    "name": "Edgware Road Station  / Bakerloo Line",
    "zones": "1",
    "latitude": 51.52021,
    "longitude": -0.17027
  },
  {
    "name": "Edgware Road Station",
    "zones": "1",
    "latitude": 51.52047,
    "longitude": -0.1665
  },
  {
    "name": "Euston Square Station",
    "zones": "1",
    "latitude": 51.52533,
    "longitude": -0.13557
  },
  {
    "name": "Fulham Broadway Station",
    "zones": "2",
    "latitude": 51.4801,
    "longitude": -0.19541
  },
  {
    "name": "Farringdon Station",
    "zones": "1",
    "latitude": 51.52112,
    "longitude": -0.10522
  },
  {
    "name": "Fairlop Station",
    "zones": "4",
    "latitude": 51.59557,
    "longitude": 0.09071
  },
  {
    "name": "Finsbury Park Station",
    "zones": "2",
    "latitude": 51.56464,
    "longitude": -0.10728
  },
  {
    "name": "Finchley Central Station",
    "zones": "4",
    "latitude": 51.60109,
    "longitude": -0.19235
  },
  {
    "name": "Finchley Central",
    "zones": "4",
    "latitude": 51.60061,
    "longitude": -0.19294
  },
  {
    "name": "Finchley Road Station",
    "zones": "2",
    "latitude": 51.54688,
    "longitude": -0.17976
  },
  {
    "name": "Goodge Street Station",
    "zones": "1",
    "latitude": 51.520679,
    "longitude": -0.134358
  },
  {
    "name": "Golders Green Station",
    "zones": "3",
    "latitude": 51.57203,
    "longitude": -0.19441
  },
  {
    "name": "Goldhawk Road Station",
    "zones": "2",
    "latitude": 51.50197,
    "longitude": -0.22647
  },
  {
    "name": "Green Park Station",
    "zones": "1",
    "latitude": 51.507115,
    "longitude": -0.142045
  },
  {
    "name": "Great Portland Street Station",
    "zones": "1",
    "latitude": 51.52388,
    "longitude": -0.1439
  },
  {
    "name": "Great Portland St Stn  / Euston Rd",
    "zones": "1",
    "latitude": 51.52374,
    "longitude": -0.1437
  },
  {
    "name": "Gants Hill Station",
    "zones": "4",
    "latitude": 51.576438,
    "longitude": 0.065054
  },
  {
    "name": "Gloucester Road Station",
    "zones": "1",
    "latitude": 51.4946,
    "longitude": -0.18272
  },
  {
    "name": "Holborn Station",
    "zones": "1",
    "latitude": 51.51759,
    "longitude": -0.11998
  },
  {
    "name": "High Barnet Station",
    "zones": "5",
    "latitude": 51.65028,
    "longitude": -0.19416
  },
  {
    "name": "Hornchurch Station",
    "zones": "6",
    "latitude": 51.5541,
    "longitude": 0.21925
  },
  {
    "name": "Hendon Central Station",
    "zones": "3+4",
    "latitude": 51.583272,
    "longitude": -0.22631
  },
  {
    "name": "Hillingdon Station",
    "zones": "6",
    "latitude": 51.55372,
    "longitude": -0.44937
  },
  {
    "name": "Hanger Lane Station",
    "zones": "3",
    "latitude": 51.530242,
    "longitude": -0.293437
  },
  {
    "name": "Highgate Station",
    "zones": "3",
    "latitude": 51.57759,
    "longitude": -0.14598
  },
  {
    "name": "Hatton Cross Station",
    "zones": "5+6",
    "latitude": 51.466393,
    "longitude": -0.423607
  },
  {
    "name": "Hyde Park Corner Station",
    "zones": "1",
    "latitude": 51.50307,
    "longitude": -0.15325
  },
  {
    "name": "Holland Park Station",
    "zones": "2",
    "latitude": 51.50728,
    "longitude": -0.20562
  },
  {
    "name": "Heathrow Terminals 2 & 3 Underground Station",
    "zones": "6",
    "latitude": 51.471235,
    "longitude": -0.452265
  },
  {
    "name": "Hammersmith Stn / H&c and Circle Lines",
    "zones": "2",
    "latitude": 51.49331,
    "longitude": -0.2243
  },
  {
    "name": "Hammersmith (District and Piccadilly) Station",
    "zones": "2",
    "latitude": 51.49192,
    "longitude": -0.22362
  },
  {
    "name": "High Street Kensington Station",
    "zones": "1",
    "latitude": 51.50103,
    "longitude": -0.19292
  },
  {
    "name": "Hampstead Station",
    "zones": "2+3",
    "latitude": 51.5568,
    "longitude": -0.17835
  },
  {
    "name": "Hounslow Central Station",
    "zones": "4",
    "latitude": 51.471281,
    "longitude": -0.366205
  },
  {
    "name": "Hounslow East Station",
    "zones": "4",
    "latitude": 51.47331,
    "longitude": -0.3568
  },
  {
    "name": "Hounslow West Station",
    "zones": "5",
    "latitude": 51.473576,
    "longitude": -0.385806
  },
  {
    "name": "Holloway Road Station",
    "zones": "2",
    "latitude": 51.552739,
    "longitude": -0.113069
  },
  {
    "name": "Ickenham Station",
    "zones": "6",
    "latitude": 51.56202,
    "longitude": -0.4419
  },
  {
    "name": "Kilburn Station",
    "zones": "2",
    "latitude": 51.54693,
    "longitude": -0.20409
  },
  {
    "name": "Kingsbury Station",
    "zones": "4",
    "latitude": 51.58498,
    "longitude": -0.2787
  },
  {
    "name": "Knightsbridge Station",
    "zones": "1",
    "latitude": 51.49991,
    "longitude": -0.16261
  },
  {
    "name": "Kennington Station",
    "zones": "1+2",
    "latitude": 51.48816,
    "longitude": -0.10541
  },
  {
    "name": "Kilburn Park Station",
    "zones": "2",
    "latitude": 51.535133,
    "longitude": -0.194283
  },
  {
    "name": "King's Cross Station",
    "zones": "1",
    "latitude": 51.53315,
    "longitude": -0.12485
  },
  {
    "name": "Ladbroke Grove Station",
    "zones": "2",
    "latitude": 51.51742,
    "longitude": -0.21007
  },
  {
    "name": "Lambeth North Station",
    "zones": "1",
    "latitude": 51.49885,
    "longitude": -0.11221
  },
  {
    "name": "Lancaster Gate Station",
    "zones": "1",
    "latitude": 51.511856,
    "longitude": -0.17484
  },
  {
    "name": "Latimer Road Station",
    "zones": "2",
    "latitude": 51.5137,
    "longitude": -0.21763
  },
  {
    "name": "Leicester Square Station",
    "zones": "1",
    "latitude": 51.51173,
    "longitude": -0.12822
  },
  {
    "name": "Liverpool Street Station",
    "zones": "1",
    "latitude": 51.5178,
    "longitude": -0.08156
  },
  {
    "name": "Leyton Station",
    "zones": "3",
    "latitude": 51.55649,
    "longitude": -0.00582
  },
  {
    "name": "Leytonstone Station",
    "zones": "3+4",
    "latitude": 51.56805,
    "longitude": 0.00831
  },
  {
    "name": "Marble Arch Station",
    "zones": "1",
    "latitude": 51.51299,
    "longitude": -0.16279
  },
  {
    "name": "Morden Station",
    "zones": "4",
    "latitude": 51.40221,
    "longitude": -0.19436
  },
  {
    "name": "Mile End Station",
    "zones": "2",
    "latitude": 51.52525,
    "longitude": -0.0334
  },
  {
    "name": "Mill Hill East Station",
    "zones": "4",
    "latitude": 51.60827,
    "longitude": -0.20977
  },
  {
    "name": "Monument Station",
    "zones": "1",
    "latitude": 51.51165,
    "longitude": -0.08715
  },
  {
    "name": "Manor House Station",
    "zones": "2+3",
    "latitude": 51.57046,
    "longitude": -0.09614
  },
  {
    "name": "Mansion House Station",
    "zones": "1",
    "latitude": 51.51251,
    "longitude": -0.09391
  },
  {
    "name": "Mornington Crescent Station",
    "zones": "2",
    "latitude": 51.53413,
    "longitude": -0.13913
  },
  {
    "name": "Maida Vale Station",
    "zones": "2",
    "latitude": 51.529628,
    "longitude": -0.185447
  },
  {
    "name": "North Acton Station",
    "zones": "2+3",
    "latitude": 51.52346,
    "longitude": -0.25976
  },
  {
    "name": "Newbury Park Station",
    "zones": "4",
    "latitude": 51.57556,
    "longitude": 0.09065
  },
  {
    "name": "Neasden Station",
    "zones": "3",
    "latitude": 51.554273,
    "longitude": -0.250359
  },
  {
    "name": "North Ealing Station",
    "zones": "3",
    "latitude": 51.51755,
    "longitude": -0.28915
  },
  {
    "name": "Northfields Station",
    "zones": "3",
    "latitude": 51.49927,
    "longitude": -0.31455
  },
  {
    "name": "North Greenwich",
    "zones": "2/3",
    "latitude": 51.500474,
    "longitude": 0.004295
  },
  {
    "name": "North Harrow Station",
    "zones": "5",
    "latitude": 51.58476,
    "longitude": -0.3622
  },
  {
    "name": "Notting Hill Gate Station",
    "zones": "1+2",
    "latitude": 51.50991,
    "longitude": -0.19793
  },
  {
    "name": "Northolt Station",
    "zones": "5",
    "latitude": 51.548333,
    "longitude": -0.36923
  },
  {
    "name": "Northwick Park Station",
    "zones": "4",
    "latitude": 51.578491,
    "longitude": -0.317478
  },
  {
    "name": "Northwood Station",
    "zones": "6",
    "latitude": 51.61116,
    "longitude": -0.4237
  },
  {
    "name": "Northwood Hills Station",
    "zones": "6",
    "latitude": 51.60078,
    "longitude": -0.40947
  },
  {
    "name": "Oakwood Station",
    "zones": "5",
    "latitude": 51.647371,
    "longitude": -0.131402
  },
  {
    "name": "Osterley Station",
    "zones": "4",
    "latitude": 51.48132,
    "longitude": -0.35166
  },
  {
    "name": "Oval Station",
    "zones": "2",
    "latitude": 51.48227,
    "longitude": -0.11282
  },
  {
    "name": "Oxford Circus Station",
    "zones": "1",
    "latitude": 51.51596,
    "longitude": -0.14229
  },
  {
    "name": "Paddington Underground Station",
    "zones": "1",
    "latitude": 51.516581,
    "longitude": -0.175689
  },
  {
    "name": "Paddington (H&C Line)",
    "zones": "Unknown",
    "latitude": 51.51811,
    "longitude": -0.17737
  },
  {
    "name": "Piccadilly Circus",
    "zones": "1",
    "latitude": 51.51015,
    "longitude": -0.13397
  },
  {
    "name": "Pimlico Station",
    "zones": "1",
    "latitude": 51.489191,
    "longitude": -0.134592
  },
  {
    "name": "Park Royal Station",
    "zones": "3",
    "latitude": 51.52709,
    "longitude": -0.28465
  },
  {
    "name": "Plaistow Station",
    "zones": "3",
    "latitude": 51.5314,
    "longitude": 0.01771
  },
  {
    "name": "Pinner Station",
    "zones": "5",
    "latitude": 51.59168,
    "longitude": -0.38038
  },
  {
    "name": "Preston Road Station",
    "zones": "4",
    "latitude": 51.572173,
    "longitude": -0.295316
  },
  {
    "name": "Parsons Green",
    "zones": "2",
    "latitude": 51.47535,
    "longitude": -0.20088
  },
  {
    "name": "Perivale Station",
    "zones": "4",
    "latitude": 51.53647,
    "longitude": -0.32337
  },
  {
    "name": "Putney Bridge Station",
    "zones": "2",
    "latitude": 51.46794,
    "longitude": -0.20916
  },
  {
    "name": "Queensbury Station",
    "zones": "4",
    "latitude": 51.5941,
    "longitude": -0.28552
  },
  {
    "name": "Queensway Station",
    "zones": "1",
    "latitude": 51.510457,
    "longitude": -0.187232
  },
  {
    "name": "Redbridge Station",
    "zones": "4",
    "latitude": 51.576269,
    "longitude": 0.046486
  },
  {
    "name": "Regent's Park Station",
    "zones": "1",
    "latitude": 51.52359,
    "longitude": -0.14671
  },
  {
    "name": "Ruislip Gardens Station",
    "zones": "5",
    "latitude": 51.56041,
    "longitude": -0.41062
  },
  {
    "name": "Ruislip Manor Station",
    "zones": "6",
    "latitude": 51.57332,
    "longitude": -0.41298
  },
  {
    "name": "Ruislip Station",
    "zones": "6",
    "latitude": 51.57158,
    "longitude": -0.42133
  },
  {
    "name": "Russell Square",
    "zones": "1",
    "latitude": 51.52318,
    "longitude": -0.12435
  },
  {
    "name": "Ravenscourt Park Station",
    "zones": "2",
    "latitude": 51.49397,
    "longitude": -0.23633
  },
  {
    "name": "Roding Valley",
    "zones": "4",
    "latitude": 51.61685,
    "longitude": 0.04388
  },
  {
    "name": "Rayners Lane Station",
    "zones": "5",
    "latitude": 51.57495,
    "longitude": -0.37076
  },
  {
    "name": "Royal Oak",
    "zones": "2",
    "latitude": 51.519078,
    "longitude": -0.18823
  },
  {
    "name": "Shepherd's Bush Station",
    "zones": "2",
    "latitude": 51.50462,
    "longitude": -0.21814
  },
  {
    "name": "Shepherds Bush Station",
    "zones": "2",
    "latitude": 51.50501,
    "longitude": -0.21782
  },
  {
    "name": "Shepherd's Bush Market",
    "zones": "2",
    "latitude": 51.50575,
    "longitude": -0.22654
  },
  {
    "name": "South Ealing Station",
    "zones": "3",
    "latitude": 51.50138,
    "longitude": -0.30685
  },
  {
    "name": "Stamford Brook Station",
    "zones": "2",
    "latitude": 51.49495,
    "longitude": -0.24497
  },
  {
    "name": "Southfields Station",
    "zones": "3",
    "latitude": 51.445441,
    "longitude": -0.20653
  },
  {
    "name": "Stepney Green Station",
    "zones": "2",
    "latitude": 51.5218,
    "longitude": -0.04661
  },
  {
    "name": "Southgate Station",
    "zones": "4",
    "latitude": 51.63255,
    "longitude": -0.12786
  },
  {
    "name": "South Harrow Station",
    "zones": "5",
    "latitude": 51.56479,
    "longitude": -0.35281
  },
  {
    "name": "St James's Park Station",
    "zones": "1",
    "latitude": 51.49937,
    "longitude": -0.13336
  },
  {
    "name": "St John's Wood Station",
    "zones": "2",
    "latitude": 51.535025,
    "longitude": -0.173957
  },
  {
    "name": "South Kensington Station",
    "zones": "1",
    "latitude": 51.49567,
    "longitude": -0.17377
  },
  {
    "name": "Stockwell Station",
    "zones": "2",
    "latitude": 51.47244,
    "longitude": -0.12283
  },
  {
    "name": "Snaresbrook Station",
    "zones": "4",
    "latitude": 51.58094,
    "longitude": 0.02184
  },
  {
    "name": "St Paul's Station",
    "zones": "1",
    "latitude": 51.51494,
    "longitude": -0.09758
  },
  {
    "name": "Sloane Square Station  / Symon Street",
    "zones": "1",
    "latitude": 51.49249,
    "longitude": -0.15663
  },
  {
    "name": "Sloane Square Station",
    "zones": "1",
    "latitude": 51.49217,
    "longitude": -0.15625
  },
  {
    "name": "Stanmore Station",
    "zones": "5",
    "latitude": 51.61964,
    "longitude": -0.30365
  },
  {
    "name": "Sudbury Hill",
    "zones": "4",
    "latitude": 51.55701,
    "longitude": -0.33607
  },
  {
    "name": "Sudbury Town Station",
    "zones": "4",
    "latitude": 51.55095,
    "longitude": -0.31558
  },
  {
    "name": "Swiss Cottage Station",
    "zones": "2",
    "latitude": 51.543615,
    "longitude": -0.174695
  },
  {
    "name": "South Woodford Station",
    "zones": "4",
    "latitude": 51.59218,
    "longitude": 0.02725
  },
  {
    "name": "Southwark Station",
    "zones": "1",
    "latitude": 51.50375,
    "longitude": -0.10469
  },
  {
    "name": "South Wimbledon Station",
    "zones": "3+4",
    "latitude": 51.415225,
    "longitude": -0.192411
  },
  {
    "name": "Totteridge & Whetstone Stn",
    "zones": "4",
    "latitude": 51.63018,
    "longitude": -0.17928
  },
  {
    "name": "Tooting Bec Station",
    "zones": "3",
    "latitude": 51.43585,
    "longitude": -0.159211
  },
  {
    "name": "Tooting Broadway Station",
    "zones": "3",
    "latitude": 51.427806,
    "longitude": -0.168136
  },
  {
    "name": "Tottenham Court Road Station",
    "zones": "1",
    "latitude": 51.51628,
    "longitude": -0.13
  },
  {
    "name": "Tufnell Park Station",
    "zones": "2",
    "latitude": 51.55685,
    "longitude": -0.13801
  },
  {
    "name": "Temple Station",
    "zones": "1",
    "latitude": 51.51101,
    "longitude": -0.11397
  },
  {
    "name": "Turnham Green Station",
    "zones": "2+3",
    "latitude": 51.49538,
    "longitude": -0.25521
  },
  {
    "name": "Turnpike Lane Station",
    "zones": "3",
    "latitude": 51.590139,
    "longitude": -0.102497
  },
  {
    "name": "Tower Hill",
    "zones": "1",
    "latitude": 51.50983,
    "longitude": -0.07648
  },
  {
    "name": "Upminster Bridge Station",
    "zones": "6",
    "latitude": 51.55901,
    "longitude": 0.23587
  },
  {
    "name": "Upton Park Station",
    "zones": "3",
    "latitude": 51.53523,
    "longitude": 0.03517
  },
  {
    "name": "Upney Station",
    "zones": "4",
    "latitude": 51.538262,
    "longitude": 0.100112
  },
  {
    "name": "Uxbridge Station",
    "zones": "6",
    "latitude": 51.54642,
    "longitude": -0.47876
  },
  {
    "name": "Victoria Station",
    "zones": "1",
    "latitude": 51.49686,
    "longitude": -0.14176
  },
  {
    "name": "Vauxhall",
    "zones": "1+2",
    "latitude": 51.485739,
    "longitude": -0.123303
  },
  {
    "name": "White City Station",
    "zones": "2",
    "latitude": 51.51196,
    "longitude": -0.22474
  },
  {
    "name": "West Finchley Station",
    "zones": "4",
    "latitude": 51.60817,
    "longitude": -0.18817
  },
  {
    "name": "West Hampstead Station",
    "zones": "2",
    "latitude": 51.54677,
    "longitude": -0.19102
  },
  {
    "name": "West Harrow Station",
    "zones": "5",
    "latitude": 51.57991,
    "longitude": -0.35299
  },
  {
    "name": "Willesden Green Station",
    "zones": "2+3",
    "latitude": 51.549348,
    "longitude": -0.221846
  },
  {
    "name": "Wimbledon Park",
    "zones": "3",
    "latitude": 51.434307,
    "longitude": -0.199384
  },
  {
    "name": "Warwick Avenue Station",
    "zones": "2",
    "latitude": 51.52313,
    "longitude": -0.18415
  },
  {
    "name": "West Kensington Station",
    "zones": "2",
    "latitude": 51.4907,
    "longitude": -0.20686
  },
  {
    "name": "Wood Lane",
    "zones": "2",
    "latitude": 51.50967,
    "longitude": -0.2245
  },
  {
    "name": "Woodford Station",
    "zones": "4",
    "latitude": 51.60752,
    "longitude": 0.03469
  },
  {
    "name": "Wood Green Station",
    "zones": "3",
    "latitude": 51.597533,
    "longitude": -0.109913
  },
  {
    "name": "Woodside Park Station",
    "zones": "4",
    "latitude": 51.61798,
    "longitude": -0.18575
  },
  {
    "name": "Warren Street Station",
    "zones": "1",
    "latitude": 51.5245,
    "longitude": -0.13808
  },
  {
    "name": "Wanstead Station",
    "zones": "4",
    "latitude": 51.575672,
    "longitude": 0.029069
  },
  {
    "name": "Wanstead Station  / George Green",
    "zones": "4",
    "latitude": 51.57524,
    "longitude": 0.02826
  },
  {
    "name": "Westminster Station",
    "zones": "1",
    "latitude": 51.50115,
    "longitude": -0.12386
  },
  {
    "name": "Westbourne Park Station",
    "zones": "2",
    "latitude": 51.5209,
    "longitude": -0.20067
  },
  {
    "name": "West Acton Station",
    "zones": "3",
    "latitude": 51.51789,
    "longitude": -0.28108
  },
  {
    "name": "Wembley Park Station",
    "zones": "4",
    "latitude": 51.56298,
    "longitude": -0.27946
  },
  {
    "name": "Battersea Power Station Underground Station",
    "zones": "1",
    "latitude": 51.479932,
    "longitude": -0.142142
  },
  {
    "name": "Acton Town Underground Station",
    "zones": "3",
    "latitude": 51.503057,
    "longitude": -0.280462
  },
  {
    "name": "Archway Underground Station",
    "zones": "2+3",
    "latitude": 51.565478,
    "longitude": -0.134819
  },
  {
    "name": "Aldgate East Underground Station",
    "zones": "1",
    "latitude": 51.515037,
    "longitude": -0.072384
  },
  {
    "name": "Angel Underground Station",
    "zones": "1",
    "latitude": 51.532624,
    "longitude": -0.105898
  },
  {
    "name": "Aldgate Underground Station",
    "zones": "1",
    "latitude": 51.514246,
    "longitude": -0.075689
  },
  {
    "name": "Alperton Underground Station",
    "zones": "4",
    "latitude": 51.540627,
    "longitude": -0.29961
  },
  {
    "name": "Arnos Grove Underground Station",
    "zones": "4",
    "latitude": 51.616446,
    "longitude": -0.133062
  },
  {
    "name": "Arsenal Underground Station",
    "zones": "2",
    "latitude": 51.558655,
    "longitude": -0.107457
  },
  {
    "name": "Bromley-by-Bow Underground Station",
    "zones": "2/3",
    "latitude": 51.524839,
    "longitude": -0.011538
  },
  {
    "name": "Barbican Underground Station",
    "zones": "1",
    "latitude": 51.520275,
    "longitude": -0.097993
  },
  {
    "name": "Bounds Green Underground Station",
    "zones": "3+4",
    "latitude": 51.607034,
    "longitude": -0.124235
  },
  {
    "name": "Bounds Green",
    "zones": "3+4",
    "latitude": 51.60729,
    "longitude": -0.12447
  },
  {
    "name": "Becontree Underground Station",
    "zones": "5",
    "latitude": 51.540331,
    "longitude": 0.127016
  },
  {
    "name": "Barkingside Underground Station",
    "zones": "4",
    "latitude": 51.585689,
    "longitude": 0.088585
  },
  {
    "name": "Blackfriars Underground Station",
    "zones": "1",
    "latitude": 51.511581,
    "longitude": -0.103659
  },
  {
    "name": "Barking Underground Station",
    "zones": "4",
    "latitude": 51.539321,
    "longitude": 0.081053
  },
  {
    "name": "Bethnal Green Underground Station",
    "zones": "2",
    "latitude": 51.527222,
    "longitude": -0.055506
  },
  {
    "name": "Bethnal Green",
    "zones": "2",
    "latitude": 51.527171,
    "longitude": -0.054557
  },
  {
    "name": "Balham Underground Station",
    "zones": "3",
    "latitude": 51.443288,
    "longitude": -0.152997
  },
  {
    "name": "Blackhorse Road Underground Station",
    "zones": "3",
    "latitude": 51.586919,
    "longitude": -0.04115
  },
  {
    "name": "Blackhorse Road Station",
    "zones": "3",
    "latitude": 51.586828,
    "longitude": -0.041645
  },
  {
    "name": "Bermondsey Underground Station",
    "zones": "2",
    "latitude": 51.49775,
    "longitude": -0.063993
  },
  {
    "name": "Bond Street Underground Station",
    "zones": "1",
    "latitude": 51.514304,
    "longitude": -0.149723
  },
  {
    "name": "Bank Underground Station",
    "zones": "1",
    "latitude": 51.513356,
    "longitude": -0.088899
  },
  {
    "name": "Borough Underground Station",
    "zones": "1",
    "latitude": 51.501199,
    "longitude": -0.09337
  },
  {
    "name": "Boston Manor Underground Station",
    "zones": "4",
    "latitude": 51.495635,
    "longitude": -0.324939
  },
  {
    "name": "Barons Court Underground Station",
    "zones": "2",
    "latitude": 51.490311,
    "longitude": -0.213427
  },
  {
    "name": "Baker Street Underground Station",
    "zones": "1",
    "latitude": 51.522883,
    "longitude": -0.15713
  },
  {
    "name": "Burnt Oak Underground Station",
    "zones": "4",
    "latitude": 51.602774,
    "longitude": -0.264048
  },
  {
    "name": "Brent Cross Underground Station",
    "zones": "3",
    "latitude": 51.57665,
    "longitude": -0.213622
  },
  {
    "name": "Bow Road Underground Station",
    "zones": "2",
    "latitude": 51.52694,
    "longitude": -0.025128
  },
  {
    "name": "Bayswater Underground Station",
    "zones": "1",
    "latitude": 51.512284,
    "longitude": -0.187938
  },
  {
    "name": "Brixton Underground Station",
    "zones": "2",
    "latitude": 51.462618,
    "longitude": -0.114888
  },
  {
    "name": "Belsize Park Underground Station",
    "zones": "2",
    "latitude": 51.550311,
    "longitude": -0.164648
  },
  {
    "name": "Caledonian Road Underground Station",
    "zones": "2",
    "latitude": 51.548519,
    "longitude": -0.118493
  },
  {
    "name": "Chalk Farm Underground Station",
    "zones": "2",
    "latitude": 51.544118,
    "longitude": -0.153388
  },
  {
    "name": "Covent Garden Underground Station",
    "zones": "1",
    "latitude": 51.513093,
    "longitude": -0.124436
  },
  {
    "name": "Canning Town Underground Station",
    "zones": "2/3",
    "latitude": 51.513584,
    "longitude": 0.008322
  },
  {
    "name": "Chancery Lane Underground Station",
    "zones": "1",
    "latitude": 51.518247,
    "longitude": -0.111583
  },
  {
    "name": "Charing Cross Underground Station",
    "zones": "1",
    "latitude": 51.50741,
    "longitude": -0.127277
  },
  {
    "name": "Cockfosters Underground Station",
    "zones": "5",
    "latitude": 51.65152,
    "longitude": -0.149171
  },
  {
    "name": "Colindale Underground Station",
    "zones": "4",
    "latitude": 51.595424,
    "longitude": -0.249919
  },
  {
    "name": "Clapham Common Underground Station",
    "zones": "2",
    "latitude": 51.461742,
    "longitude": -0.138317
  },
  {
    "name": "Clapham Common",
    "zones": "2",
    "latitude": 51.462077,
    "longitude": -0.137296
  },
  {
    "name": "Canons Park Underground Station",
    "zones": "5",
    "latitude": 51.607701,
    "longitude": -0.294693
  },
  {
    "name": "Clapham North Underground Station",
    "zones": "2",
    "latitude": 51.465135,
    "longitude": -0.130016
  },
  {
    "name": "Clapham North",
    "zones": "2",
    "latitude": 51.465231,
    "longitude": -0.129811
  },
  {
    "name": "Clapham South Underground Station",
    "zones": "2+3",
    "latitude": 51.452654,
    "longitude": -0.147582
  },
  {
    "name": "Clapham South",
    "zones": "2+3",
    "latitude": 51.452904,
    "longitude": -0.1475
  },
  {
    "name": "Colliers Wood Underground Station",
    "zones": "3",
    "latitude": 51.41816,
    "longitude": -0.178086
  },
  {
    "name": "Cannon Street Underground Station",
    "zones": "1",
    "latitude": 51.51151,
    "longitude": -0.090432
  },
  {
    "name": "Camden Town Underground Station",
    "zones": "2",
    "latitude": 51.539292,
    "longitude": -0.14274
  },
  {
    "name": "Chiswick Park Underground Station",
    "zones": "3",
    "latitude": 51.494627,
    "longitude": -0.267972
  },
  {
    "name": "Canada Water Underground Station",
    "zones": "2",
    "latitude": 51.497931,
    "longitude": -0.049405
  },
  {
    "name": "Canary Wharf Underground Station",
    "zones": "2",
    "latitude": 51.503488,
    "longitude": -0.018246
  },
  {
    "name": "Dagenham East Underground Station",
    "zones": "5",
    "latitude": 51.544096,
    "longitude": 0.166017
  },
  {
    "name": "Dagenham Heathway Underground Station",
    "zones": "5",
    "latitude": 51.541639,
    "longitude": 0.147527
  },
  {
    "name": "Dollis Hill Underground Station",
    "zones": "3",
    "latitude": 51.551955,
    "longitude": -0.239068
  },
  {
    "name": "Elephant & Castle Underground Station",
    "zones": "1+2",
    "latitude": 51.494536,
    "longitude": -0.100606
  },
  {
    "name": "Eastcote Underground Station",
    "zones": "5",
    "latitude": 51.576506,
    "longitude": -0.397373
  },
  {
    "name": "East Acton Underground Station",
    "zones": "2",
    "latitude": 51.516612,
    "longitude": -0.247248
  },
  {
    "name": "Ealing Broadway Underground Station",
    "zones": "3",
    "latitude": 51.515017,
    "longitude": -0.301457
  },
  {
    "name": "Ealing Common Underground Station",
    "zones": "3",
    "latitude": 51.51014,
    "longitude": -0.288265
  },
  {
    "name": "Earl's Court Underground Station",
    "zones": "1+2",
    "latitude": 51.492063,
    "longitude": -0.193378
  },
  {
    "name": "East Finchley Underground Station",
    "zones": "3",
    "latitude": 51.587131,
    "longitude": -0.165012
  },
  {
    "name": "Edgware Underground Station",
    "zones": "5",
    "latitude": 51.613653,
    "longitude": -0.274928
  },
  {
    "name": "East Ham Underground Station",
    "zones": "3+4",
    "latitude": 51.538948,
    "longitude": 0.051186
  },
  {
    "name": "Embankment Underground Station",
    "zones": "1",
    "latitude": 51.507058,
    "longitude": -0.122666
  },
  {
    "name": "Elm Park Underground Station",
    "zones": "6",
    "latitude": 51.549775,
    "longitude": 0.19864
  },
  {
    "name": "East Putney Underground Station",
    "zones": "2+3",
    "latitude": 51.459205,
    "longitude": -0.211
  },
  {
    "name": "Edgware Road (Bakerloo) Underground Station",
    "zones": "1",
    "latitude": 51.520299,
    "longitude": -0.17015
  },
  {
    "name": "Edgware Road (Circle Line) Underground Station",
    "zones": "1",
    "latitude": 51.519858,
    "longitude": -0.167832
  },
  {
    "name": "Euston Square Underground Station",
    "zones": "1",
    "latitude": 51.525604,
    "longitude": -0.135829
  },
  {
    "name": "Euston Underground Station",
    "zones": "1",
    "latitude": 51.528344,
    "longitude": -0.1323
  },
  {
    "name": "Fulham Broadway Underground Station",
    "zones": "2",
    "latitude": 51.480081,
    "longitude": -0.195422
  },
  {
    "name": "Farringdon Underground Station",
    "zones": "1",
    "latitude": 51.520252,
    "longitude": -0.104913
  },
  {
    "name": "Fairlop Underground Station",
    "zones": "4",
    "latitude": 51.595618,
    "longitude": 0.091004
  },
  {
    "name": "Finsbury Park Underground Station",
    "zones": "2",
    "latitude": 51.564158,
    "longitude": -0.106825
  },
  {
    "name": "Finchley Central Underground Station",
    "zones": "4",
    "latitude": 51.600921,
    "longitude": -0.192527
  },
  {
    "name": "Finchley Road Underground Station",
    "zones": "2",
    "latitude": 51.546825,
    "longitude": -0.179845
  },
  {
    "name": "Gunnersbury Underground Station",
    "zones": "3",
    "latitude": 51.491803,
    "longitude": -0.275267
  },
  {
    "name": "Gunnersbury Station",
    "zones": "3",
    "latitude": 51.491481,
    "longitude": -0.275395
  },
  {
    "name": "Goodge Street Underground Station",
    "zones": "1",
    "latitude": 51.520599,
    "longitude": -0.134361
  },
  {
    "name": "Greenford Underground Station",
    "zones": "4",
    "latitude": 51.542424,
    "longitude": -0.34605
  },
  {
    "name": "Golders Green Underground Station",
    "zones": "3",
    "latitude": 51.572259,
    "longitude": -0.194039
  },
  {
    "name": "Goldhawk Road Underground Station",
    "zones": "2",
    "latitude": 51.502005,
    "longitude": -0.226715
  },
  {
    "name": "Green Park Underground Station",
    "zones": "1",
    "latitude": 51.506947,
    "longitude": -0.142787
  },
  {
    "name": "Great Portland Street Underground Station",
    "zones": "1",
    "latitude": 51.52384,
    "longitude": -0.144262
  },
  {
    "name": "Gants Hill Underground Station",
    "zones": "4",
    "latitude": 51.576544,
    "longitude": 0.066185
  },
  {
    "name": "Gloucester Road Underground Station",
    "zones": "1",
    "latitude": 51.494316,
    "longitude": -0.182658
  },
  {
    "name": "Highbury & Islington Underground Station",
    "zones": "2",
    "latitude": 51.54635,
    "longitude": -0.103324
  },
  {
    "name": "Harrow & Wealdstone Underground Station",
    "zones": "5",
    "latitude": 51.592268,
    "longitude": -0.335217
  },
  {
    "name": "Holborn Underground Station",
    "zones": "1",
    "latitude": 51.51758,
    "longitude": -0.120475
  },
  {
    "name": "High Barnet Underground Station",
    "zones": "5",
    "latitude": 51.650541,
    "longitude": -0.194298
  },
  {
    "name": "Hornchurch Underground Station",
    "zones": "6",
    "latitude": 51.554093,
    "longitude": 0.219116
  },
  {
    "name": "Hendon Central Underground Station",
    "zones": "3+4",
    "latitude": 51.583301,
    "longitude": -0.226424
  },
  {
    "name": "Hillingdon Underground Station",
    "zones": "6",
    "latitude": 51.553715,
    "longitude": -0.449828
  },
  {
    "name": "Hanger Lane Underground Station",
    "zones": "3",
    "latitude": 51.530177,
    "longitude": -0.292704
  },
  {
    "name": "Highgate Underground Station",
    "zones": "3",
    "latitude": 51.577532,
    "longitude": -0.145857
  },
  {
    "name": "Highgate",
    "zones": "3",
    "latitude": 51.577713,
    "longitude": -0.145922
  },
  {
    "name": "Hainault Underground Station",
    "zones": "4",
    "latitude": 51.603659,
    "longitude": 0.093482
  },
  {
    "name": "Hatton Cross Underground Station",
    "zones": "5+6",
    "latitude": 51.466747,
    "longitude": -0.423191
  },
  {
    "name": "Harrow-on-the-Hill Underground Station",
    "zones": "5",
    "latitude": 51.579195,
    "longitude": -0.337225
  },
  {
    "name": "Hyde Park Corner Underground Station",
    "zones": "1",
    "latitude": 51.503035,
    "longitude": -0.152441
  },
  {
    "name": "Hyde Park Corner",
    "zones": "1",
    "latitude": 51.502866,
    "longitude": -0.153759
  },
  {
    "name": "Holland Park Underground Station",
    "zones": "2",
    "latitude": 51.507143,
    "longitude": -0.205679
  },
  {
    "name": "Heathrow Terminal 4 Underground Station",
    "zones": "6",
    "latitude": 51.458524,
    "longitude": -0.445771
  },
  {
    "name": "Heathrow Terminal 5 Underground Station",
    "zones": "6",
    "latitude": 51.470052,
    "longitude": -0.49056
  },
  {
    "name": "Heathrow Terminals 1-2-3 Underground Station",
    "zones": "6",
    "latitude": 51.471352,
    "longitude": -0.45229
  },
  {
    "name": "Hammersmith (H&C Line) Underground Station",
    "zones": "2",
    "latitude": 51.49339,
    "longitude": -0.22503
  },
  {
    "name": "Hammersmith (Dist&Picc Line) Underground Station",
    "zones": "2",
    "latitude": 51.4923,
    "longitude": -0.22362
  },
  {
    "name": "High Street Kensington Underground Station",
    "zones": "1",
    "latitude": 51.501055,
    "longitude": -0.192792
  },
  {
    "name": "Harlesden Underground Station",
    "zones": "3",
    "latitude": 51.53631,
    "longitude": -0.257883
  },
  {
    "name": "Hampstead Underground Station",
    "zones": "2+3",
    "latitude": 51.556239,
    "longitude": -0.177464
  },
  {
    "name": "Hounslow Central Underground Station",
    "zones": "4",
    "latitude": 51.471295,
    "longitude": -0.366578
  },
  {
    "name": "Hounslow East Underground Station",
    "zones": "4",
    "latitude": 51.473213,
    "longitude": -0.356474
  },
  {
    "name": "Hounslow West Underground Station",
    "zones": "5",
    "latitude": 51.473469,
    "longitude": -0.386544
  },
  {
    "name": "Holloway Road Underground Station",
    "zones": "2",
    "latitude": 51.552697,
    "longitude": -0.113244
  },
  {
    "name": "Ickenham Underground Station",
    "zones": "6",
    "latitude": 51.56445,
    "longitude": -0.44431
  },
  {
    "name": "Kilburn Underground Station",
    "zones": "2",
    "latitude": 51.547183,
    "longitude": -0.204248
  },
  {
    "name": "Kingsbury Underground Station",
    "zones": "4",
    "latitude": 51.584845,
    "longitude": -0.27879
  },
  {
    "name": "Kenton Underground Station",
    "zones": "4",
    "latitude": 51.581756,
    "longitude": -0.31691
  },
  {
    "name": "Knightsbridge Underground Station",
    "zones": "1",
    "latitude": 51.501669,
    "longitude": -0.160508
  },
  {
    "name": "Kennington Underground Station",
    "zones": "1+2",
    "latitude": 51.488337,
    "longitude": -0.105963
  },
  {
    "name": "Kensington (Olympia) Underground Station",
    "zones": "2",
    "latitude": 51.497624,
    "longitude": -0.210015
  },
  {
    "name": "Kilburn Park Underground Station",
    "zones": "2",
    "latitude": 51.534979,
    "longitude": -0.194232
  },
  {
    "name": "Kentish Town Underground Station",
    "zones": "2",
    "latitude": 51.550312,
    "longitude": -0.140733
  },
  {
    "name": "Kensal Green Underground Station",
    "zones": "2",
    "latitude": 51.530539,
    "longitude": -0.225016
  },
  {
    "name": "King's Cross St. Pancras Underground Station",
    "zones": "1",
    "latitude": 51.530663,
    "longitude": -0.123194
  },
  {
    "name": "Kew Gardens Underground Station",
    "zones": "3+4",
    "latitude": 51.477058,
    "longitude": -0.285241
  },
  {
    "name": "Ladbroke Grove Underground Station",
    "zones": "2",
    "latitude": 51.517449,
    "longitude": -0.210391
  },
  {
    "name": "Lambeth North Underground Station",
    "zones": "1",
    "latitude": 51.498808,
    "longitude": -0.112315
  },
  {
    "name": "Lambeth North",
    "zones": "1",
    "latitude": 51.498483,
    "longitude": -0.111175
  },
  {
    "name": "Lancaster Gate Underground Station",
    "zones": "1",
    "latitude": 51.511723,
    "longitude": -0.175494
  },
  {
    "name": "London Bridge Underground Station",
    "zones": "1",
    "latitude": 51.505721,
    "longitude": -0.088873
  },
  {
    "name": "London Bridge Station",
    "zones": "1",
    "latitude": 51.505551,
    "longitude": -0.088908
  },
  {
    "name": "Latimer Road Underground Station",
    "zones": "2",
    "latitude": 51.513389,
    "longitude": -0.217799
  },
  {
    "name": "Leicester Square Underground Station",
    "zones": "1",
    "latitude": 51.511386,
    "longitude": -0.128426
  },
  {
    "name": "Liverpool Street Underground Station",
    "zones": "1",
    "latitude": 51.517372,
    "longitude": -0.083182
  },
  {
    "name": "Leyton Underground Station",
    "zones": "3",
    "latitude": 51.556589,
    "longitude": -0.005523
  },
  {
    "name": "Leytonstone Underground Station",
    "zones": "3+4",
    "latitude": 51.568324,
    "longitude": 0.008194
  },
  {
    "name": "Marble Arch Underground Station",
    "zones": "1",
    "latitude": 51.513424,
    "longitude": -0.158953
  },
  {
    "name": "Marble Arch",
    "zones": "1",
    "latitude": 51.513382,
    "longitude": -0.157946
  },
  {
    "name": "Morden Underground Station",
    "zones": "4",
    "latitude": 51.402142,
    "longitude": -0.194839
  },
  {
    "name": "Mile End Underground Station",
    "zones": "2",
    "latitude": 51.525122,
    "longitude": -0.03364
  },
  {
    "name": "Moorgate Underground Station",
    "zones": "1",
    "latitude": 51.518176,
    "longitude": -0.088322
  },
  {
    "name": "Mill Hill East Underground Station",
    "zones": "4",
    "latitude": 51.608229,
    "longitude": -0.209986
  },
  {
    "name": "Monument Underground Station",
    "zones": "1",
    "latitude": 51.5107,
    "longitude": -0.085969
  },
  {
    "name": "Manor House Underground Station",
    "zones": "2+3",
    "latitude": 51.570738,
    "longitude": -0.096118
  },
  {
    "name": "Manor House",
    "zones": "2+3",
    "latitude": 51.570266,
    "longitude": -0.096441
  },
  {
    "name": "Mansion House Underground Station",
    "zones": "1",
    "latitude": 51.512117,
    "longitude": -0.094009
  },
  {
    "name": "Mornington Crescent Underground Station",
    "zones": "2",
    "latitude": 51.534679,
    "longitude": -0.138789
  },
  {
    "name": "Mornington Crescent",
    "zones": "2",
    "latitude": 51.534393,
    "longitude": -0.138339
  },
  {
    "name": "Maida Vale Underground Station",
    "zones": "2",
    "latitude": 51.529777,
    "longitude": -0.185758
  },
  {
    "name": "Marylebone Underground Station",
    "zones": "1",
    "latitude": 51.522322,
    "longitude": -0.163207
  },
  {
    "name": "North Acton Underground Station",
    "zones": "2+3",
    "latitude": 51.523524,
    "longitude": -0.259755
  },
  {
    "name": "Newbury Park Underground Station",
    "zones": "4",
    "latitude": 51.575726,
    "longitude": 0.090004
  },
  {
    "name": "Neasden Underground Station",
    "zones": "3",
    "latitude": 51.553986,
    "longitude": -0.249837
  },
  {
    "name": "North Ealing Underground Station",
    "zones": "3",
    "latitude": 51.517505,
    "longitude": -0.288868
  },
  {
    "name": "Northfields Underground Station",
    "zones": "3",
    "latitude": 51.499319,
    "longitude": -0.314719
  },
  {
    "name": "North Greenwich Underground Station",
    "zones": "2/3",
    "latitude": 51.50047,
    "longitude": 0.004287
  },
  {
    "name": "North Harrow Underground Station",
    "zones": "5",
    "latitude": 51.584872,
    "longitude": -0.362408
  },
  {
    "name": "Notting Hill Gate Underground Station",
    "zones": "1+2",
    "latitude": 51.509128,
    "longitude": -0.196104
  },
  {
    "name": "Northolt Underground Station",
    "zones": "5",
    "latitude": 51.548236,
    "longitude": -0.368699
  },
  {
    "name": "Northwick Park Underground Station",
    "zones": "4",
    "latitude": 51.578481,
    "longitude": -0.318056
  },
  {
    "name": "Northwood Underground Station",
    "zones": "6",
    "latitude": 51.611053,
    "longitude": -0.423829
  },
  {
    "name": "Northwood Hills Underground Station",
    "zones": "6",
    "latitude": 51.600572,
    "longitude": -0.409464
  },
  {
    "name": "North Wembley Underground Station",
    "zones": "4",
    "latitude": 51.562551,
    "longitude": -0.304
  },
  {
    "name": "Oakwood Underground Station",
    "zones": "5",
    "latitude": 51.647726,
    "longitude": -0.132182
  },
  {
    "name": "Old Street Underground Station",
    "zones": "1",
    "latitude": 51.525864,
    "longitude": -0.08777
  },
  {
    "name": "Old Street Station",
    "zones": "1",
    "latitude": 51.525456,
    "longitude": -0.087527
  },
  {
    "name": "Osterley Underground Station",
    "zones": "4",
    "latitude": 51.481274,
    "longitude": -0.352224
  },
  {
    "name": "Oval Underground Station",
    "zones": "2",
    "latitude": 51.48185,
    "longitude": -0.112439
  },
  {
    "name": "Oxford Circus Underground Station",
    "zones": "1",
    "latitude": 51.515224,
    "longitude": -0.141903
  },
  {
    "name": "Paddington (H&C Line)-Underground",
    "zones": "1",
    "latitude": 51.518187,
    "longitude": -0.178306
  },
  {
    "name": "Piccadilly Circus Underground Station",
    "zones": "1",
    "latitude": 51.51005,
    "longitude": -0.133798
  },
  {
    "name": "Pimlico Underground Station",
    "zones": "1",
    "latitude": 51.489097,
    "longitude": -0.133761
  },
  {
    "name": "Park Royal Underground Station",
    "zones": "3",
    "latitude": 51.527123,
    "longitude": -0.284341
  },
  {
    "name": "Plaistow Underground Station",
    "zones": "3",
    "latitude": 51.531341,
    "longitude": 0.017451
  },
  {
    "name": "Pinner Underground Station",
    "zones": "5",
    "latitude": 51.592901,
    "longitude": -0.381161
  },
  {
    "name": "Preston Road Underground Station",
    "zones": "4",
    "latitude": 51.571972,
    "longitude": -0.295107
  },
  {
    "name": "Parsons Green Underground Station",
    "zones": "2",
    "latitude": 51.475277,
    "longitude": -0.20117
  },
  {
    "name": "Perivale Underground Station",
    "zones": "4",
    "latitude": 51.536717,
    "longitude": -0.323446
  },
  {
    "name": "Perivale",
    "zones": "4",
    "latitude": 51.536538,
    "longitude": -0.32289
  },
  {
    "name": "Putney Bridge Underground Station",
    "zones": "2",
    "latitude": 51.468262,
    "longitude": -0.208731
  },
  {
    "name": "Queensbury Underground Station",
    "zones": "4",
    "latitude": 51.594188,
    "longitude": -0.286219
  },
  {
    "name": "Queen's Park Underground Station",
    "zones": "2",
    "latitude": 51.534158,
    "longitude": -0.204574
  },
  {
    "name": "Queensway Underground Station",
    "zones": "1",
    "latitude": 51.510312,
    "longitude": -0.187152
  },
  {
    "name": "Redbridge Underground Station",
    "zones": "4",
    "latitude": 51.576243,
    "longitude": 0.04536
  },
  {
    "name": "Regent's Park Underground Station",
    "zones": "1",
    "latitude": 51.523344,
    "longitude": -0.146444
  },
  {
    "name": "Richmond Underground Station",
    "zones": "4",
    "latitude": 51.463237,
    "longitude": -0.301336
  },
  {
    "name": "Ruislip Gardens Underground Station",
    "zones": "5",
    "latitude": 51.560736,
    "longitude": -0.41071
  },
  {
    "name": "Ruislip Gardens",
    "zones": "5",
    "latitude": 51.560737,
    "longitude": -0.410839
  },
  {
    "name": "Ruislip Manor Underground Station",
    "zones": "6",
    "latitude": 51.573202,
    "longitude": -0.412973
  },
  {
    "name": "Ruislip Underground Station",
    "zones": "6",
    "latitude": 51.571354,
    "longitude": -0.421898
  },
  {
    "name": "Russell Square Underground Station",
    "zones": "1",
    "latitude": 51.523073,
    "longitude": -0.124285
  },
  {
    "name": "Ravenscourt Park Underground Station",
    "zones": "2",
    "latitude": 51.494122,
    "longitude": -0.235881
  },
  {
    "name": "Roding Valley Underground Station",
    "zones": "4",
    "latitude": 51.617199,
    "longitude": 0.043647
  },
  {
    "name": "Rayners Lane Underground Station",
    "zones": "5",
    "latitude": 51.575147,
    "longitude": -0.371127
  },
  {
    "name": "Royal Oak Underground Station",
    "zones": "2",
    "latitude": 51.519113,
    "longitude": -0.188748
  },
  {
    "name": "Shepherd's Bush (Central) Underground Station",
    "zones": "2",
    "latitude": 51.504376,
    "longitude": -0.218813
  },
  {
    "name": "Shepherd's Bush (Central Line)",
    "zones": "2",
    "latitude": 51.504363,
    "longitude": -0.217964
  },
  {
    "name": "Shepherd's Bush Market Underground Station",
    "zones": "2",
    "latitude": 51.505579,
    "longitude": -0.226375
  },
  {
    "name": "South Ealing Underground Station",
    "zones": "3",
    "latitude": 51.501003,
    "longitude": -0.307424
  },
  {
    "name": "Stamford Brook Underground Station",
    "zones": "2",
    "latitude": 51.494917,
    "longitude": -0.245704
  },
  {
    "name": "Southfields Underground Station",
    "zones": "3",
    "latitude": 51.445073,
    "longitude": -0.206602
  },
  {
    "name": "Stepney Green Underground Station",
    "zones": "2",
    "latitude": 51.521858,
    "longitude": -0.046596
  },
  {
    "name": "Stonebridge Park Underground Station",
    "zones": "3",
    "latitude": 51.543959,
    "longitude": -0.275892
  },
  {
    "name": "Southgate Underground Station",
    "zones": "4",
    "latitude": 51.632315,
    "longitude": -0.127816
  },
  {
    "name": "Southgate",
    "zones": "4",
    "latitude": 51.632252,
    "longitude": -0.127833
  },
  {
    "name": "South Harrow Underground Station",
    "zones": "5",
    "latitude": 51.564888,
    "longitude": -0.352492
  },
  {
    "name": "St. James's Park Underground Station",
    "zones": "1",
    "latitude": 51.499544,
    "longitude": -0.133608
  },
  {
    "name": "St. John's Wood Underground Station",
    "zones": "2",
    "latitude": 51.534521,
    "longitude": -0.173948
  },
  {
    "name": "South Kensington Underground Station",
    "zones": "1",
    "latitude": 51.494094,
    "longitude": -0.174138
  },
  {
    "name": "South Kenton Underground Station",
    "zones": "4",
    "latitude": 51.570232,
    "longitude": -0.308433
  },
  {
    "name": "South Kenton Station",
    "zones": "4",
    "latitude": 51.570367,
    "longitude": -0.308486
  },
  {
    "name": "Stockwell Underground Station",
    "zones": "2",
    "latitude": 51.472184,
    "longitude": -0.122644
  },
  {
    "name": "Snaresbrook Underground Station",
    "zones": "4",
    "latitude": 51.580678,
    "longitude": 0.02144
  },
  {
    "name": "St. Paul's Underground Station",
    "zones": "1",
    "latitude": 51.514936,
    "longitude": -0.097567
  },
  {
    "name": "South Ruislip Underground Station",
    "zones": "5",
    "latitude": 51.556853,
    "longitude": -0.398915
  },
  {
    "name": "South Ruislip Station",
    "zones": "5",
    "latitude": 51.556958,
    "longitude": -0.399373
  },
  {
    "name": "Sloane Square Underground Station",
    "zones": "1",
    "latitude": 51.49227,
    "longitude": -0.156377
  },
  {
    "name": "Stratford Underground Station",
    "zones": "2/3",
    "latitude": 51.541806,
    "longitude": -0.003458
  },
  {
    "name": "Stanmore Underground Station",
    "zones": "5",
    "latitude": 51.619839,
    "longitude": -0.303266
  },
  {
    "name": "Sudbury Hill Underground Station",
    "zones": "4",
    "latitude": 51.556946,
    "longitude": -0.336435
  },
  {
    "name": "Sudbury Town Underground Station",
    "zones": "4",
    "latitude": 51.550815,
    "longitude": -0.315745
  },
  {
    "name": "Seven Sisters Underground Station",
    "zones": "3",
    "latitude": 51.58333,
    "longitude": -0.072584
  },
  {
    "name": "Swiss Cottage Underground Station",
    "zones": "2",
    "latitude": 51.543681,
    "longitude": -0.174894
  },
  {
    "name": "South Woodford Underground Station",
    "zones": "4",
    "latitude": 51.591907,
    "longitude": 0.027338
  },
  {
    "name": "Southwark Underground Station",
    "zones": "1",
    "latitude": 51.50427,
    "longitude": -0.105331
  },
  {
    "name": "South Wimbledon Underground Station",
    "zones": "3+4",
    "latitude": 51.415309,
    "longitude": -0.192005
  },
  {
    "name": "Totteridge & Whetstone Underground Station",
    "zones": "4",
    "latitude": 51.630597,
    "longitude": -0.17921
  },
  {
    "name": "Tooting Bec Underground Station",
    "zones": "3",
    "latitude": 51.435678,
    "longitude": -0.159736
  },
  {
    "name": "Tooting Broadway Underground Station",
    "zones": "3",
    "latitude": 51.42763,
    "longitude": -0.168374
  },
  {
    "name": "Tottenham Court Road Underground Station",
    "zones": "1",
    "latitude": 51.516426,
    "longitude": -0.13041
  },
  {
    "name": "Tufnell Park Underground Station",
    "zones": "2",
    "latitude": 51.556822,
    "longitude": -0.138433
  },
  {
    "name": "Tottenham Hale Underground Station",
    "zones": "3",
    "latitude": 51.588108,
    "longitude": -0.060241
  },
  {
    "name": "Tottenham Hale",
    "zones": "3",
    "latitude": 51.588315,
    "longitude": -0.06024
  },
  {
    "name": "Temple Underground Station",
    "zones": "1",
    "latitude": 51.511006,
    "longitude": -0.11426
  },
  {
    "name": "Turnham Green Underground Station",
    "zones": "2+3",
    "latitude": 51.495148,
    "longitude": -0.254555
  },
  {
    "name": "Turnpike Lane Underground Station",
    "zones": "3",
    "latitude": 51.590272,
    "longitude": -0.102953
  },
  {
    "name": "Tower Hill Underground Station",
    "zones": "1",
    "latitude": 51.509971,
    "longitude": -0.076546
  },
  {
    "name": "Upminster Bridge Underground Station",
    "zones": "6",
    "latitude": 51.55856,
    "longitude": 0.235809
  },
  {
    "name": "Upminster Bridge",
    "zones": "6",
    "latitude": 51.558263,
    "longitude": 0.234872
  },
  {
    "name": "Upton Park Underground Station",
    "zones": "3",
    "latitude": 51.53534,
    "longitude": 0.035263
  },
  {
    "name": "Upminster Underground Station",
    "zones": "6",
    "latitude": 51.559063,
    "longitude": 0.250882
  },
  {
    "name": "Upney Underground Station",
    "zones": "4",
    "latitude": 51.538372,
    "longitude": 0.10153
  },
  {
    "name": "Uxbridge Underground Station",
    "zones": "6",
    "latitude": 51.546565,
    "longitude": -0.477949
  },
  {
    "name": "Victoria Underground Station",
    "zones": "1",
    "latitude": 51.496359,
    "longitude": -0.143102
  },
  {
    "name": "Vauxhall Underground Station",
    "zones": "1+2",
    "latitude": 51.485743,
    "longitude": -0.124204
  },
  {
    "name": "West Brompton Underground Station",
    "zones": "2",
    "latitude": 51.487268,
    "longitude": -0.195599
  },
  {
    "name": "White City Underground Station",
    "zones": "2",
    "latitude": 51.511959,
    "longitude": -0.224297
  },
  {
    "name": "West Finchley Underground Station",
    "zones": "4",
    "latitude": 51.609426,
    "longitude": -0.188362
  },
  {
    "name": "West Ham Underground Station",
    "zones": "2/3",
    "latitude": 51.528136,
    "longitude": 0.005055
  },
  {
    "name": "West Hampstead Underground Station",
    "zones": "2",
    "latitude": 51.546638,
    "longitude": -0.191059
  },
  {
    "name": "West Harrow Underground Station",
    "zones": "5",
    "latitude": 51.57971,
    "longitude": -0.3534
  },
  {
    "name": "Willesden Green Underground Station",
    "zones": "2+3",
    "latitude": 51.549146,
    "longitude": -0.221537
  },
  {
    "name": "Wimbledon Underground Station",
    "zones": "3",
    "latitude": 51.421207,
    "longitude": -0.206573
  },
  {
    "name": "Wimbledon Park Underground Station",
    "zones": "3",
    "latitude": 51.434573,
    "longitude": -0.199719
  },
  {
    "name": "Willesden Junction Underground Station",
    "zones": "2+3",
    "latitude": 51.532259,
    "longitude": -0.244283
  },
  {
    "name": "Warwick Avenue Underground Station",
    "zones": "2",
    "latitude": 51.523263,
    "longitude": -0.183783
  },
  {
    "name": "Warwick Avenue",
    "zones": "2",
    "latitude": 51.522964,
    "longitude": -0.183103
  },
  {
    "name": "West Kensington Underground Station",
    "zones": "2",
    "latitude": 51.490459,
    "longitude": -0.206636
  },
  {
    "name": "Wood Lane Underground Station",
    "zones": "2",
    "latitude": 51.509669,
    "longitude": -0.22453
  },
  {
    "name": "Waterloo Underground Station",
    "zones": "1",
    "latitude": 51.503299,
    "longitude": -0.11478
  },
  {
    "name": "Waterloo Station",
    "zones": "1",
    "latitude": 51.503333,
    "longitude": -0.113021
  },
  {
    "name": "Woodford Underground Station",
    "zones": "4",
    "latitude": 51.606899,
    "longitude": 0.03397
  },
  {
    "name": "Wood Green Underground Station",
    "zones": "3",
    "latitude": 51.597479,
    "longitude": -0.109886
  },
  {
    "name": "Woodside Park Underground Station",
    "zones": "4",
    "latitude": 51.618014,
    "longitude": -0.18542
  },
  {
    "name": "Whitechapel Underground Station",
    "zones": "2",
    "latitude": 51.519518,
    "longitude": -0.059971
  },
  {
    "name": "West Ruislip Underground Station",
    "zones": "6",
    "latitude": 51.569688,
    "longitude": -0.437886
  },
  {
    "name": "Warren Street Underground Station",
    "zones": "1",
    "latitude": 51.524951,
    "longitude": -0.138321
  },
  {
    "name": "Wanstead Underground Station",
    "zones": "4",
    "latitude": 51.575501,
    "longitude": 0.028527
  },
  {
    "name": "Westminster Underground Station",
    "zones": "1",
    "latitude": 51.50132,
    "longitude": -0.124861
  },
  {
    "name": "Westbourne Park Underground Station",
    "zones": "2",
    "latitude": 51.52111,
    "longitude": -0.201065
  },
  {
    "name": "West Acton Underground Station",
    "zones": "3",
    "latitude": 51.518001,
    "longitude": -0.28098
  },
  {
    "name": "Walthamstow Central Underground Station",
    "zones": "3",
    "latitude": 51.582965,
    "longitude": -0.019885
  },
  {
    "name": "Wembley Central Underground Station",
    "zones": "4",
    "latitude": 51.552304,
    "longitude": -0.296852
  },
  {
    "name": "Wembley Park Underground Station",
    "zones": "4",
    "latitude": 51.563198,
    "longitude": -0.279262
  },
  {
    "name": "Nine Elms Underground Station",
    "zones": "1",
    "latitude": 51.479912,
    "longitude": -0.128476
  },
  {
    "name": "Amersham",
    "zones": "9",
    "latitude": 51.674207,
    "longitude": -0.60759
  },
  {
    "name": "Balham",
    "zones": "3",
    "latitude": 51.443259,
    "longitude": -0.152707
  },
  {
    "name": "Bank",
    "zones": "1",
    "latitude": 51.513395,
    "longitude": -0.089095
  },
  {
    "name": "Bond Street",
    "zones": "1",
    "latitude": 51.513362,
    "longitude": -0.148795
  },
  {
    "name": "Blackfriars",
    "zones": "1",
    "latitude": 51.509613,
    "longitude": -0.104166
  },
  {
    "name": "Blackhorse Road",
    "zones": "3",
    "latitude": 51.586768,
    "longitude": -0.041185
  },
  {
    "name": "Barking",
    "zones": "4",
    "latitude": 51.539413,
    "longitude": 0.080988
  },
  {
    "name": "Brixton",
    "zones": "2",
    "latitude": 51.462961,
    "longitude": -0.114531
  },
  {
    "name": "Canning Town",
    "zones": "2/3",
    "latitude": 51.514029,
    "longitude": 0.008025
  },
  {
    "name": "Canary Wharf",
    "zones": "2",
    "latitude": 51.503734,
    "longitude": -0.019121
  },
  {
    "name": "Chalfont & Latimer",
    "zones": "8",
    "latitude": 51.668109,
    "longitude": -0.560519
  },
  {
    "name": "Charing Cross",
    "zones": "1",
    "latitude": 51.507819,
    "longitude": -0.126137
  },
  {
    "name": "Chorleywood",
    "zones": "7",
    "latitude": 51.654249,
    "longitude": -0.518312
  },
  {
    "name": "Cannon Street",
    "zones": "1",
    "latitude": 51.511451,
    "longitude": -0.090357
  },
  {
    "name": "Ealing Broadway",
    "zones": "3",
    "latitude": 51.514993,
    "longitude": -0.302131
  },
  {
    "name": "Elephant & Castle",
    "zones": "1+2",
    "latitude": 51.494505,
    "longitude": -0.099185
  },
  {
    "name": "Euston",
    "zones": "1",
    "latitude": 51.527365,
    "longitude": -0.132754
  },
  {
    "name": "Finsbury Park",
    "zones": "2",
    "latitude": 51.564778,
    "longitude": -0.105876
  },
  {
    "name": "Greenford",
    "zones": "4",
    "latitude": 51.542657,
    "longitude": -0.345789
  },
  {
    "name": "Gunnersbury",
    "zones": "3",
    "latitude": 51.491745,
    "longitude": -0.275276
  },
  {
    "name": "Heathrow Terminals 2 & 3",
    "zones": "6",
    "latitude": 51.471618,
    "longitude": -0.454037
  },
  {
    "name": "Harlesden",
    "zones": "3",
    "latitude": 51.536305,
    "longitude": -0.257774
  },
  {
    "name": "Highbury & Islington",
    "zones": "2",
    "latitude": 51.546269,
    "longitude": -0.103538
  },
  {
    "name": "Hammersmith",
    "zones": "2",
    "latitude": 51.492304,
    "longitude": -0.223619
  },
  {
    "name": "Harrow-on-the-Hill",
    "zones": "5",
    "latitude": 51.579197,
    "longitude": -0.337226
  },
  {
    "name": "Harrow & Wealdstone",
    "zones": "5",
    "latitude": 51.592216,
    "longitude": -0.334896
  },
  {
    "name": "Heathrow Airport Terminal 4",
    "zones": "6",
    "latitude": 51.458837,
    "longitude": -0.446419
  },
  {
    "name": "Heathrow Airport Terminal 5",
    "zones": "6",
    "latitude": 51.471569,
    "longitude": -0.489556
  },
  {
    "name": "King's Cross & St Pancras International",
    "zones": "1",
    "latitude": 51.531683,
    "longitude": -0.123538
  },
  {
    "name": "Kensal Green",
    "zones": "2",
    "latitude": 51.530545,
    "longitude": -0.22505
  },
  {
    "name": "Kenton",
    "zones": "4",
    "latitude": 51.581786,
    "longitude": -0.316946
  },
  {
    "name": "Kensington (Olympia)",
    "zones": "2",
    "latitude": 51.496156,
    "longitude": -0.210502
  },
  {
    "name": "Kentish Town",
    "zones": "2",
    "latitude": 51.550409,
    "longitude": -0.140545
  },
  {
    "name": "Kew Gardens",
    "zones": "3+4",
    "latitude": 51.477069,
    "longitude": -0.285148
  },
  {
    "name": "London Bridge",
    "zones": "1",
    "latitude": 51.505881,
    "longitude": -0.086807
  },
  {
    "name": "Liverpool Street",
    "zones": "1",
    "latitude": 51.51794,
    "longitude": -0.083162
  },
  {
    "name": "Marylebone",
    "zones": "1",
    "latitude": 51.521602,
    "longitude": -0.163013
  },
  {
    "name": "North Wembley",
    "zones": "4",
    "latitude": 51.56258,
    "longitude": -0.303992
  },
  {
    "name": "Old Street",
    "zones": "1",
    "latitude": 51.526065,
    "longitude": -0.088193
  },
  {
    "name": "Paddington",
    "zones": "1",
    "latitude": 51.516981,
    "longitude": -0.17616
  },
  {
    "name": "Queen's Park",
    "zones": "2",
    "latitude": 51.534443,
    "longitude": -0.204882
  },
  {
    "name": "Rickmansworth",
    "zones": "7",
    "latitude": 51.640247,
    "longitude": -0.473273
  },
  {
    "name": "Richmond",
    "zones": "4",
    "latitude": 51.463152,
    "longitude": -0.301448
  },
  {
    "name": "Stonebridge Park",
    "zones": "3",
    "latitude": 51.544041,
    "longitude": -0.275859
  },
  {
    "name": "South Kenton",
    "zones": "4",
    "latitude": 51.570229,
    "longitude": -0.308448
  },
  {
    "name": "Shepherd's Bush",
    "zones": "2",
    "latitude": 51.504791,
    "longitude": -0.219213
  },
  {
    "name": "Stratford",
    "zones": "2/3",
    "latitude": 51.541508,
    "longitude": -0.00241
  },
  {
    "name": "South Ruislip",
    "zones": "5",
    "latitude": 51.556893,
    "longitude": -0.399076
  },
  {
    "name": "Seven Sisters",
    "zones": "3",
    "latitude": 51.582931,
    "longitude": -0.073306
  },
  {
    "name": "Tottenham Court Road",
    "zones": "1",
    "latitude": 51.516018,
    "longitude": -0.130888
  },
  {
    "name": "Upminster",
    "zones": "6",
    "latitude": 51.558659,
    "longitude": 0.250855
  },
  {
    "name": "Victoria",
    "zones": "1",
    "latitude": 51.495812,
    "longitude": -0.143826
  },
  {
    "name": "Waterloo",
    "zones": "1",
    "latitude": 51.504269,
    "longitude": -0.113356
  },
  {
    "name": "West Brompton",
    "zones": "2",
    "latitude": 51.487168,
    "longitude": -0.195593
  },
  {
    "name": "West Ham",
    "zones": "2/3",
    "latitude": 51.528178,
    "longitude": 0.004997
  },
  {
    "name": "Walthamstow Central",
    "zones": "3",
    "latitude": 51.582948,
    "longitude": -0.019842
  },
  {
    "name": "West Hampstead",
    "zones": "2",
    "latitude": 51.547533,
    "longitude": -0.191357
  },
  {
    "name": "Willesden Junction",
    "zones": "2+3",
    "latitude": 51.532556,
    "longitude": -0.243006
  },
  {
    "name": "Wimbledon",
    "zones": "3",
    "latitude": 51.421505,
    "longitude": -0.206444
  },
  {
    "name": "Wembley Central",
    "zones": "4",
    "latitude": 51.55232,
    "longitude": -0.296642
  },
  {
    "name": "West Ruislip",
    "zones": "6",
    "latitude": 51.569721,
    "longitude": -0.437816
  },
  {
    "name": "Westminster",
    "zones": "1",
    "latitude": 51.501603,
    "longitude": -0.125984
  },
  {
    "name": "Canada Water",
    "zones": "2",
    "latitude": 51.498053,
    "longitude": -0.049667
  },
  {
    "name": "Farringdon",
    "zones": "1",
    "latitude": 51.520214,
    "longitude": -0.105054
  },
  {
    "name": "Moorgate",
    "zones": "1",
    "latitude": 51.518338,
    "longitude": -0.088627
  },
  {
    "name": "Whitechapel",
    "zones": "2",
    "latitude": 51.519498,
    "longitude": -0.059858
  }
]